     2.11           OBSERVATION DATA    M (MIXED)           RINEX VERSION / TYPE
teqc  2017Sep15     dlseng              20171129 03:31:26UTCPGM / RUN BY / DATE
Linux 2.6.32-573.12.1.x86_64|x86_64|gcc|Linux 64|=+         COMMENT
teqc  2012Apr13     CORS/NGS/NOAA       20120615 02:15:38UTCCOMMENT
Solaris x86 5.10|AMD64|cc SC5.8 -xarch=amd64|=+|=+          COMMENT
teqc  2012Apr13     CORS-ADM Account    20120615 02:15:25UTCCOMMENT
teqc  2012Apr13     CORS/NGS/NOAA       20120615 02:15:20UTCCOMMENT
0000.000      (antenna height)                              COMMENT
BIT 2 OF LLI FLAGS DATA COLLECTED UNDER A/S CONDITION       COMMENT
 SNR is mapped to RINEX snr flag value [0-9]                COMMENT
  L1 & L2: min(max(int(snr_dBHz/6), 0), 9)                  COMMENT
WUHN                                                        MARKER NAME
21602M001                                                   MARKER NUMBER
Prof. Guigen Nie    Wuhan University                        OBSERVER / AGENCY
4918K35018          TRIMBLE NETR8       NP 4.16 / SP 3.59   REC # / TYPE / VERS
4852A62817          TRM59800.00     ENCL                    ANT # / TYPE
 -2267750.4463  5009156.7914  3221292.3024                  APPROX POSITION XYZ
        2.3612       -0.0022       -0.0094                  ANTENNA: DELTA H/E/N
     1     1                                                WAVELENGTH FACT L1/2
     7    L1    L2    C1    P1    P2    S1    S2            # / TYPES OF OBSERV
    30.0000                                                 INTERVAL
teqc windowed: start @ 2012 Jun 14 00:00:00.000             COMMENT
teqc windowed: delta = 86400.000 sec                        COMMENT
    15                                                      LEAP SECONDS
Forced Modulo Decimation to 30 seconds                      COMMENT
teqc edited: all GLONASS satellites excluded                COMMENT
  2012     6    14     0     0    0.0000000     GPS         TIME OF FIRST OBS
                                                            END OF HEADER
 12  6 14  0  0  0.0000000  0  9G21G27G09G25G18G15G12G22G14
 115947630.580 7  90348790.57645  22064095.016                    22064104.152
        45.300          32.000
 122327477.366 7  95320148.93345  23278144.711                    23278155.531
        43.600          30.300
 110750573.805 8  86299224.01546  21075143.797                    21075152.582
        50.100          39.100
 124087795.712 7  96691882.43444  23613122.945                    23613136.324
        43.200          27.900
 106395601.318 8  82905526.08447  20246371.461                    20246378.652
        51.900          45.400
 123838084.096 7  96497165.06145  23565588.695                    23565598.535
        44.400          30.200
 118398394.532 7  92258591.66045  22530477.227                    22530487.402
        45.900          34.600
 114123305.033 8  88927370.00246  21716965.438                    21716971.074
        48.100          38.100
 118688576.609 7  92484521.98545  22585658.734                    22585668.953
        43.900          30.700
 12  6 14  0  0 30.0000000  0  9G21G27G09G25G18G15G12G22G14
 116029309.852 7  90412436.66445  22079637.938                    22079646.852
        44.100          30.400
 122422166.697 7  95393932.75144  23296163.992                    23296174.070
        43.100          29.900
 110823310.746 8  86355902.10946  21088985.305                    21088994.051
        50.000          38.400
 123992414.980 7  96617559.91944  23594972.289                    23594985.875
        42.700          27.000
 106385809.274 8  82897895.88547  20244508.289                    20244515.672
        51.800          44.900
 123903479.103 7  96548122.15045  23578032.945                    23578042.797
        42.800          30.000
 118341684.891 7  92214402.35545  22519685.750                    22519695.273
        47.800          34.500
 114050767.471 8  88870847.24846  21703161.789                    21703168.023
        49.000          37.700
 118643382.773 7  92449305.99844  22577058.320                    22577068.809
        43.300          29.200
 12  6 14  0  1  0.0000000  0  9G21G27G09G25G18G15G12G22G14
 116111282.414 7  90476311.29344  22095237.063                    22095245.785
        44.900          29.900
 122516946.774 7  95467787.27445  23314199.984                    23314210.172
        43.700          30.200
 110896448.154 8  86412892.26746  21102902.477                    21102911.703
        50.400          39.400
 123897074.231 6  96543268.59944  23576829.570                    23576843.203
        41.600          27.400
 106376435.654 8  82890591.75747  20242724.586                    20242732.016
        51.400          45.000
 123968888.181 7  96599090.17844  23590479.938                    23590490.039
        44.600          29.600
 118285366.698 8  92170518.09145  22508968.766                    22508977.523
        48.200          34.600
 113978431.358 8  88814481.46946  21689396.813                    21689403.039
        49.000          38.100
 118598291.282 7  92414169.80745  22568478.180                    22568487.863
        43.900          30.600
 12  6 14  0  1 30.0000000  0  9G21G27G09G25G18G15G12G22G14
 116193549.919 7  90540415.77545  22110892.039                    22110900.992
        44.500          30.500
 122611819.992 7  95541714.36045  23332253.695                    23332264.570
        44.500          30.900
 110969987.687 8  86470195.75346  21116897.125                    21116905.523
        49.700          39.000
 123801781.169 7  96469014.42144  23558695.289                    23558709.395
        42.200          27.600
 106367486.712 8  82883618.52847  20241021.461                    20241029.152
        51.700          44.800
 124034316.163 7  96650072.89944  23602929.711                    23602940.781
        42.500          27.600
 118229447.722 7  92126944.92445  22498327.578                    22498337.324
        47.800          34.500
 113906302.909 7  88758277.51046  21675671.234                    21675677.824
        47.200          38.300
 118553305.879 7  92379116.28844  22559917.539                    22559926.191
        44.500          29.800
 12  6 14  0  2  0.0000000  0  9G21G27G09G25G18G15G12G22G14
 116276103.833 7  90604743.41244  22126601.625                    22126610.965
        43.600          29.900
 122706778.295 7  95615707.75045  23350323.805                    23350334.344
        44.700          30.100
 111043920.862 8  86527805.96246  21130966.094                    21130975.012
        49.900          39.600
 123706533.121 7  96394795.30544  23540569.898                    23540583.930
        42.500          29.200
 106358958.473 8  82876973.13547  20239398.680                    20239405.773
        52.100          44.600
 124099757.513 7  96701066.09844  23615383.281                    23615394.070
        44.100          29.400
 118173925.574 7  92083680.96645  22487762.055                    22487771.324
        47.800          34.800
 113834378.597 8  88702232.61046  21661984.422                    21661990.363
        48.700          38.300
 118508420.695 7  92344140.85045  22551375.969                    22551385.586
        44.600          30.200
 12  6 14  0  2 30.0000000  0  9G21G27G09G25G18G15G12G22G14
 116358945.778 7  90669295.49744  22142366.023                    22142374.730
        42.900          29.600
 122801824.287 7  95689769.47845  23368410.805                    23368420.797
        45.200          30.200
 111118249.646 8  86585724.44046  21145110.305                    21145119.582
        50.000          39.800
 123611338.061 7  96320617.49444  23522455.133                    23522468.078
        42.000          29.300
 106350857.121 8  82870660.36847  20237857.047                    20237864.363
        51.700          44.300
 124165217.011 7  96752073.39844  23627839.891                    23627851.082
        44.600          29.400
 118118807.677 8  92040732.00545  22477273.398                    22477282.906
        48.900          34.900
 113762665.933 8  88646352.62546  21648337.695                    21648344.402
        48.600          38.300
 118463640.011 7  92309246.83345  22542854.188                    22542864.555
        43.400          30.100
 12  6 14  0  3  0.0000000  0  9G21G27G09G25G18G15G12G22G14
 116442069.626 7  90734067.23345  22158183.906                    22158193.039
        44.500          30.500
 122896952.536 7  95763895.30645  23386512.875                    23386523.691
        44.400          30.000
 111192968.151 8  86643946.58846  21159328.891                    21159337.879
        49.600          39.200
 123516195.874 6  96246480.89444  23504350.266                    23504362.887
        40.600          27.300
 106343180.748 8  82864678.74947  20236396.297                    20236403.363
        52.200          44.700
 124230691.310 7  96803092.23645  23640299.695                    23640310.219
        45.900          30.600
 118064093.816 8  91998097.87645  22466861.883                    22466870.836
        48.300          35.500
 113691163.944 7  88590636.81846  21634731.016                    21634738.004
        47.600          37.800
 118418959.931 7  92274431.19145  22534352.258                    22534362.387
        44.100          30.400
 12  6 14  0  3 30.0000000  0  9G21G27G09G25G18G15G12G22G14
 116525474.320 7  90799057.83444  22174055.250                    22174063.770
        44.500          29.300
 122992162.829 7  95838085.06645  23404631.086                    23404641.859
        44.400          31.100
 111268075.770 8  86702471.96046  21173621.594                    21173630.820
        49.600          39.200
 123421111.630 6  96172389.38844  23486255.813                    23486269.191
        41.000          28.200
 106335933.230 8  82859031.31347  20235017.172                    20235024.676
        52.300          45.100
 124296182.829 7  96854124.50245  23652762.258                    23652772.980
        45.200          30.200
 118009788.540 7  91955782.12045  22456527.680                    22456536.359
        46.600          33.900
 113619876.511 7  88535088.20346  21621165.922                    21621172.309
        47.500          38.400
 118374381.960 7  92239695.15345  22525869.281                    22525879.082
        45.200          31.300
 12  6 14  0  4  0.0000000  0  9G21G27G09G25G18G15G12G22G14
 116609156.033 7  90864264.28544  22189979.539                    22189988.320
        44.400          29.600
 123087452.216 7  95912336.44545  23422764.445                    23422774.957
        45.500          30.400
 111343568.915 8  86761297.74346  21187987.375                    21187996.207
        50.600          39.600
 123326087.775 6  96098344.97244  23468173.219                    23468186.867
        41.100          27.700
 106329115.108 8  82853718.47147  20233719.820                    20233727.004
        52.800          44.700
 124361690.790 7  96905169.57545  23665228.336                    23665239.063
        45.600          30.400
 117955894.229 7  91913786.59145  22446272.422                    22446280.648
        47.900          34.700
 113548805.292 8  88479708.06046  21607641.359                    21607647.629
        48.100          38.100
 118329905.303 7  92205038.03545  22517405.594                    22517415.098
        45.000          30.600
 12  6 14  0  4 30.0000000  0  9G21G27G09G25G18G15G12G22G14
 116693112.665 7  90929684.94244  22205956.180                    22205965.156
        44.800          28.700
 123182819.077 7  95986648.19945  23440911.969                    23440922.949
        45.000          30.200
 111419445.458 8  86820422.29046  21202426.109                    21202434.695
        50.300          39.300
 123231128.206 6  96024350.61344  23450102.961                    23450116.859
        41.100          29.700
 106322728.442 8  82848741.82447  20232504.258                    20232511.957
        52.100          44.600
 124427216.257 7  96956228.27744  23677696.922                    23677707.320
        44.500          29.400
 117902414.248 8  91872113.91545  22436094.898                    22436103.918
        48.400          35.400
 113477953.073 8  88424498.56646  21594158.617                    21594165.305
        49.300          38.400
 118285529.796 7  92170459.74245  22508960.969                    22508970.598
        43.700          30.100
 12  6 14  0  5  0.0000000  0  9G21G27G09G25G18G15G12G22G14
 116777339.846 7  90995316.42245  22221983.539                    22221993.195
        44.800          30.000
 123278259.897 7  96061017.55745  23459073.813                    23459084.324
        45.100          30.200
 111495701.185 8  86879842.30046  21216936.867                    21216946.129
        50.000          39.900
 123136234.735 6  95950407.73044  23432044.602                    23432058.762
        41.100          26.500
 106316773.834 8  82844101.85047  20231371.211                    20231378.961
        51.700          44.600
 124492757.708 7  97007299.46244  23690169.281                    23690179.012
        45.400          28.600
 117849350.898 7  91830765.88245  22425997.430                    22426006.871
        46.900          35.400
 113407321.133 8  88369460.73046  21580717.766                    21580724.367
        49.200          38.300
 118241253.810 7  92135959.00344  22500535.680                    22500545.438
        42.600          29.300
 12  6 14  0  5 30.0000000  0  9G21G27G09G25G18G15G12G22G14
 116861835.111 7  91061156.82244  22238062.719                    22238072.016
        45.100          28.600
 123373773.036 7  96135443.29045  23477249.477                    23477259.977
        43.400          30.000
 111572333.927 8  86939556.05346  21231519.813                    21231529.348
        50.100          40.500
 123041411.061 6  95876519.25644  23414000.414                    23414014.434
        41.800          26.900
 106311252.660 8  82839799.60947  20230320.398                    20230327.535
        52.300          44.500
 124558316.176 7  97058383.88945  23702644.742                    23702655.688
        45.200          30.900
 117796706.627 7  91789744.42346  22415979.523                    22415989.578
        46.900          36.100
 113336911.890 8  88314596.41546  21567319.617                    21567325.633
        48.400          38.300
 118197077.342 7  92101535.78245  22492128.883                    22492139.148
        43.700          30.100
 12  6 14  0  6  0.0000000  0  9G21G27G09G25G18G15G12G22G14
 116946594.429 7  91127202.95344  22254192.336                    22254201.457
        45.500          29.800
 123469355.323 7  96209922.89744  23495438.023                    23495448.301
        43.100          29.300
 111649339.967 8  86999560.71646  21246173.969                    21246183.043
        50.500          40.200
 122946659.316 7  95802686.83944  23395969.992                    23395983.656
        43.200          26.900
 106306165.342 8  82835835.44247  20229352.477                    20229360.359
        53.000          44.600
 124623890.635 7  97109480.77945  23715123.828                    23715134.223
        46.300          31.400
 117744483.287 8  91749050.94445  22406041.602                    22406050.703
        49.300          35.700
 113266726.727 8  88259906.70946  21553963.586                    21553970.090
        48.400          38.400
 118152998.995 7  92067189.08545  22483741.445                    22483751.293
        43.600          30.600
 12  6 14  0  6 30.0000000  0  9G21G27G09G25G18G15G12G22G14
 117031615.758 7  91193453.26244  22270371.672                    22270380.730
        45.200          29.700
 123565005.588 7  96284455.47244  23513640.703                    23513650.219
        42.800          29.000
 111726717.617 8  87059854.92846  21260898.492                    21260907.277
        50.200          40.000
 122851983.674 7  95728913.71444  23377953.844                    23377968.023
        43.600          27.100
 106301514.724 8  82832211.56747  20228467.813                    20228475.328
        53.200          44.300
 124689482.380 7  97160591.12945  23727604.992                    23727615.230
        45.900          31.200
 117692685.045 8  91708688.73246  22396184.813                    22396193.953
        49.600          36.200
 113196769.007 8  88205394.24746  21540650.547                    21540657.645
        48.300          38.800
 118109019.407 7  92032919.26944  22475371.930                    22475382.023
        44.600          29.800
 12  6 14  0  7  0.0000000  0 10G21G27G31G09G25G18G15G12G22G14
 117116895.961 7  91259905.27444  22286599.531                    22286608.715
        44.700          28.600
 123660721.398 7  96359039.14144  23531854.578                    23531863.875
        44.600          29.800
 129426975.02715                  24629129.664
        34.800
 111804463.658 8  87120436.21146  21275692.781                    21275701.730
        49.300          39.900
 122757387.053 7  95655202.14844  23359953.211                    23359966.234
        42.500          28.000
 106297301.599 8  82828928.60347  20227665.922                    20227673.391
        52.000          44.200
 124755091.176 7  97211714.77145  23740089.875                    23740100.574
        45.400          30.600
 117641314.244 8  91668659.56546  22386409.352                    22386418.484
        48.500          36.700
 113127040.773 8  88151060.60046  21527381.930                    21527388.625
        48.100          38.900
 118065137.749 7  91998725.80444  22467021.906                    22467031.246
        44.900          29.800
 12  6 14  0  7 30.0000000  0 10G21G27G31G09G25G18G15G12G22G14
 117202431.656 7  91326556.38344  22302876.594                    22302884.898
        45.000          29.600
 123756500.180 7  96433671.87944  23550080.984                    23550090.254
        44.300          29.600
 129322209.291 6 100770569.85252  24609194.766                    24609203.535
        36.300          16.900
 111882575.101 8  87181302.21646  21290557.141                    21290566.289
        49.500          39.200
 122662872.293 7  95581554.38944  23341967.359                    23341980.680
        42.500          27.500
 106293527.192 8  82825987.49847  20226947.766                    20226955.246
        52.700          44.700
 124820716.663 7  97262851.43945  23752578.344                    23752589.184
        46.900          30.700
 117590373.300 8  91628965.37546  22376715.094                    22376724.848
        49.000          36.500
 113057543.903 8  88096907.21846  21514156.938                    21514163.820
        48.600          38.100
 118021353.304 7  91964608.06245  22458690.195                    22458699.871
        44.300          31.300
 12  6 14  0  8  0.0000000  0 10G21G27G31G09G25G18G15G12G22G14
 117288220.338 7  91393404.58344  22319201.539                    22319210.086
        44.400          27.700
 123852340.581 7  96508352.62945  23568318.500                    23568328.277
        44.900          30.500
 129217603.034 6 100689058.49243  24589288.023                    24589299.215
        37.600          18.300
 111961049.637 8  87242451.15246  21305490.555                    21305498.777
        50.300          38.800
 122568443.212 7  95507973.37344  23323997.250                    23324011.035
        42.900          27.400
 106290193.656 8  82823389.91647  20226313.539                    20226320.875
        52.500          44.200
 124886359.968 7  97314001.96645  23765069.492                    23765080.531
        46.400          30.600
 117539865.970 8  91589609.06546  22367104.156                    22367113.227
        49.300          36.700
 112988281.461 7  88042936.52846  21500976.750                    21500983.945
        47.900          38.600
 117977666.553 7  91930566.47145  22450376.656                    22450386.281
        45.200          31.400
 12  6 14  0  8 30.0000000  0 10G21G27G31G09G25G18G15G12G22G14
 117374258.965 7  91460447.58444  22335575.117                    22335583.156
        43.400          28.500
 123948239.984 7  96583079.36544  23586567.422                    23586578.246
        45.900          29.100
 129113158.116 6 100607672.81143  24569411.813                    24569425.645
        39.400          20.600
 112039884.495 8  87303880.86046  21320492.227                    21320500.727
        48.700          38.600
 122474102.767 7  95434461.44344  23306045.172                    23306057.902
        42.900          27.100
 106287301.989 8  82821136.64147  20225762.922                    20225770.668
        51.200          44.600
 124952020.879 7  97365166.21845  23777564.641                    23777575.520
        46.600          30.400
 117489794.479 8  91550592.38446  22357575.570                    22357585.262
        49.700          37.100
 112919255.453 8  87989150.05146  21487841.680                    21487847.730
        48.100          39.300
 117934076.349 7  91896600.07745  22442081.297                    22442091.852
        44.900          30.200
 12  6 14  0  9  0.0000000  0 10G21G27G31G09G25G18G15G12G22G14
 117460543.269 7  91527682.00144  22351994.359                    22352003.051
        43.700          29.100
 124044195.315 7  96657849.66644  23604827.305                    23604837.598
        44.900          29.200
 129008875.347 6 100526413.52743  24549568.258                    24549581.246
        38.900          20.600
 112119075.583 8  87365588.15246  21335561.344                    21335570.313
        48.900          38.200
 122379853.112 7  95361020.22644  23288110.508                    23288123.336
        42.500          29.600
 106284852.554 8  82819227.94947  20225296.969                    20225303.813
        50.200          44.100
 125017698.651 7  97416343.60844  23790062.930                    23790073.418
        45.500          29.400
 117440160.389 8  91511916.52246  22348130.813                    22348140.121
        49.700          36.800
 112850466.847 8  87935548.57846  21474751.500                    21474757.754
        48.800          38.600
 117890581.643 7  91862708.10845  22433804.469                    22433814.891
        44.100          30.900
 12  6 14  0  9 30.0000000  0 10G21G27G31G09G25G18G15G12G22G14
 117547069.121 7  91595104.65444  22368459.805                    22368468.641
        43.300          29.800
 124140203.436 7  96732661.08844  23623096.984                    23623107.766
        44.700          28.200
 128904755.410 6 100445281.12143  24529754.656                    24529767.668
        38.900          20.400
 112198619.060 8  87427570.03146  21350698.008                    21350706.883
        48.100          37.900
 122285696.258 7  95287651.30445  23270193.016                    23270206.105
        43.200          30.100
 106282845.204 8  82817663.75147  20224914.609                    20224922.617
        52.100          44.700
 125083392.312 7  97467533.36244  23802563.680                    23802575.715
        43.700          29.800
 117390965.719 8  91473583.06346  22338768.977                    22338778.336
        49.200          36.700
 112781916.857 8  87882133.02046  21461706.727                    21461713.441
        49.100          39.000
 117847180.647 7  91828889.16945  22425546.156                    22425555.961
        45.000          31.600
 12  6 14  0 10  0.0000000  0 10G21G27G31G09G25G18G15G12G22G14
 117633836.178 7  91662715.26844  22384970.609                    22384979.547
        44.300          29.100
 124236264.944 7  96807514.11344  23641377.047                    23641387.707
        44.900          27.900
 128800802.825 6 100364279.11543  24509973.930                    24509986.000
        38.300          19.300
 112278514.878 8  87489826.45446  21365901.977                    21365911.262
        48.100          37.500
 122191638.153 7  95214359.34645  23252294.086                    23252307.473
        43.200          30.400
 106281284.276 8  82816447.42147  20224617.969                    20224625.789
        51.900          44.600
 125149104.773 7  97518737.75144  23815068.461                    23815079.453
        45.000          28.600
 117342215.481 8  91435595.90546  22329492.492                    22329501.109
        49.100          36.400
 112713610.916 8  87828907.64646  21448708.859                    21448715.316
        49.100          39.600
 117803875.673 7  91795145.07345  22417305.438                    22417315.469
        45.300          31.600
 12  6 14  0 10 30.0000000  0 10G21G27G31G09G25G18G15G12G22G14
 117720840.057 7  91730510.40644  22401527.555                    22401536.258
        44.400          29.900
 124332376.094 7  96882405.83744  23659667.148                    23659676.934
        44.900          28.100
 128697018.495 7 100283408.19543  24490223.469                    24490236.836
        42.700          19.000
 112358758.942 8  87552354.24146  21381171.914                    21381181.398
        48.300          37.300
 122097680.519 6  95141145.62345  23234414.508                    23234427.824
        40.900          30.800
 106280169.719 8  82815578.92047  20224405.727                    20224413.551
        51.900          44.600
 125214834.563 7  97569955.67544  23827575.961                    23827587.574
        44.100          27.800
 117293910.749 8  91397955.92746  22320300.305                    22320309.141
        48.300          36.100
 112645549.586 8  87775872.86046  21435757.227                    21435763.922
        49.700          39.700
 117760664.504 7  91761474.05045  22409082.797                    22409092.477
        45.500          30.200
 12  6 14  0 11  0.0000000  0 10G21G27G31G09G25G18G15G12G22G14
 117808076.569 7  91798486.80144  22418127.383                    22418137.184
        43.600          28.100
 124428534.168 7  96957334.12444  23677965.117                    23677975.004
        44.900          26.900
 128593403.188 7 100202668.98343  24470506.422                    24470518.781
        42.300          20.900
 112439347.447 8  87615150.41546  21396507.328                    21396516.809
        48.100          37.400
 122003825.712 7  95068012.03545  23216554.898                    23216568.402
        43.200          31.100
 106279501.728 8  82815058.37647  20224279.094                    20224286.406
        52.300          44.700
 125280581.368 7  97621186.85444  23840087.945                    23840098.715
        45.200          27.700
 117246053.734 8  91360664.79746  22311192.867                    22311202.547
        48.500          36.100
 112577734.186 8  87723029.73046  21422852.602                    21422859.133
        49.800          39.800
 117717546.189 7  91727875.40845  22400877.125                    22400887.355
        45.500          30.600
 12  6 14  0 11 30.0000000  0 10G21G27G31G09G25G18G15G12G22G14
 117895545.198 7  91866644.06244  22434772.438                    22434781.871
        43.600          29.600
 124524739.301 7  97032299.07844  23696271.992                    23696282.480
        44.700          27.600
 128489961.238 6 100122064.87643  24450822.414                    24450833.699
        41.000          20.400
 112520279.536 7  87678214.33146  21411908.094                    21411917.328
        47.800          36.800
 121910079.211 7  94994962.84345  23198715.383                    23198728.340
        44.300          32.300
 106279283.721 8  82814888.47947  20224237.383                    20224245.035
        52.900          44.800
 125346347.317 7  97672432.94444  23852602.961                    23852613.313
        46.300          28.900
 117198649.267 7  91323726.30545  22302172.023                    22302182.238
        47.600          35.900
 112510169.152 8  87670381.67046  21409995.156                    21410001.039
        49.200          39.400
 117674522.676 7  91694350.62245  22392689.359                    22392700.422
        45.700          30.400
 12  6 14  0 12  0.0000000  0 10G21G27G31G09G25G18G15G12G22G14
 117983240.087 7  91934977.66544  22451460.000                    22451469.668
        42.700          29.800
 124620986.601 7  97107296.89944  23714587.977                    23714597.934
        44.800          27.500
 128386692.092 6 100041595.38443  24431171.453                    24431182.535
        41.600          21.100
 112601550.064 8  87741541.95846  21427373.867                    21427382.711
        48.500          36.900
 121816441.526 7  94921998.48745  23180896.070                    23180909.418
        44.100          32.200
 106279514.670 8  82815068.41547  20224281.328                    20224288.547
        52.300          44.500
 125412129.864 7  97723691.98644  23865121.172                    23865132.012
        45.100          29.200
 117151697.061 7  91287140.22046  22293237.328                    22293247.281
        47.500          36.400
 112442854.399 8  87617928.61646  21397185.758                    21397192.051
        50.300          39.300
 117631590.706 7  91660897.17644  22384520.117                    22384530.145
        45.900          29.900
 12  6 14  0 12 30.0000000  0 10G21G27G31G09G25G18G15G12G22G14
 118071161.572 7  92003487.84044  22468190.734                    22468200.512
        42.800          28.800
 124717277.211 7  97182328.46844  23732911.156                    23732921.059
        44.800          26.600
 128283600.724 7  99961264.39543  24411552.906                    24411564.813
        42.000          22.200
 112683159.341 8  87805133.53846  21442903.578                    21442912.453
        49.000          37.300
 121722919.178 7  94849124.01145  23163100.078                    23163112.805
        44.100          31.500
 106280199.010 8  82815601.65047  20224411.578                    20224419.324
        52.300          45.000
 125477932.802 7  97774966.89144  23877643.570                    23877653.578
        45.100          29.100
 117105203.043 7  91250911.15946  22284390.211                    22284399.336
        47.300          36.200
 112375795.416 8  87565674.86446  21384424.852                    21384430.992
        49.900          39.900
 117588753.162 7  91627517.31245  22376368.453                    22376378.648
        45.800          30.600
 12  6 14  0 13  0.0000000  0 10G21G27G31G09G25G18G15G12G22G14
 118159302.650 7  92072169.08744  22484963.750                    22484973.699
        42.000          28.300
 124813605.079 7  97257389.06444  23751242.438                    23751252.262
        43.600          26.100
 128180685.033 6  99881070.35643  24391968.664                    24391980.957
        40.600          21.800
 112765100.623 8  87868983.84146  21458496.250                    21458505.543
        48.900          37.300
 121629511.414 7  94776338.81345  23145324.992                    23145337.125
        43.400          30.700
 106281333.815 8  82816485.88747  20224627.625                    20224635.277
        52.200          44.500
 125543752.197 7  97826254.66744  23890168.539                    23890179.035
        46.400          29.400
 117059166.117 8  91215038.27546  22275629.195                    22275638.973
        48.200          36.500
 112308990.269 8  87513618.91346  21371712.219                    21371718.828
        49.600          40.500
 117546005.760 7  91594207.65745  22368234.250                    22368244.227
        46.000          30.400
 12  6 14  0 13 30.0000000  0 10G21G27G31G09G25G18G15G12G22G14
 118247662.880 7  92141021.11044  22501778.188                    22501788.164
        42.200          27.900
 124909970.920 7  97332479.25144  23769579.805                    23769590.258
        43.800          24.900
 128077949.338 6  99801016.55143  24372418.156                    24372430.477
        41.900          22.200
 112847373.841 8  87933092.78146  21474152.055                    21474161.695
        48.100          36.900
 121536223.918 7  94703647.29745  23127573.375                    23127585.445
        44.300          32.700
 106282922.936 8  82817724.13447  20224929.711                    20224937.461
        52.400          44.800
 125609591.037 7  97877557.57845  23902697.180                    23902707.695
        44.800          30.700
 117013591.291 7  91179525.46746  22266956.180                    22266965.793
        47.500          36.400
 112242444.087 8  87461764.77546  21359048.992                    21359055.289
        49.500          40.500
 117503350.368 7  91560969.74245  22360117.180                    22360126.227
        45.800          31.200
 12  6 14  0 14  0.0000000  0 10G21G27G31G09G25G18G15G12G22G14
 118336238.546 6  92210041.04944  22518633.758                    22518643.625
        40.900          28.600
 125006372.196 7  97407597.01644  23787924.945                    23787935.441
        43.700          26.700
 127975395.465 6  99721104.40343  24352902.984                    24352914.945
        39.200          20.400
 112929975.551 8  87997457.66846  21489871.281                    21489880.785
        48.100          36.000
 121443059.442 7  94631051.65445  23109844.258                    23109857.141
        45.200          31.200
 106284967.121 8  82819316.98147  20225318.891                    20225326.277
        52.600          44.800
 125675448.990 7  97928875.38045  23915229.664                    23915239.965
        44.100          30.600
 116968480.400 7  91144374.13746  22258372.492                    22258382.141
        47.200          37.100
 112176158.872 8  87410113.97346  21346434.867                    21346441.113
        50.500          39.900
 117460785.876 7  91527802.62745  22352017.523                    22352026.949
        45.500          31.400
 12  6 14  0 14 30.0000000  0 10G21G27G31G09G25G18G15G12G22G14
 118425026.631 6  92279226.44544  22535530.258                    22535539.484
        41.200          27.400
 125102806.793 6  97482740.76744  23806275.656                    23806286.133
        41.800          25.600
 127873025.126 6  99641335.23343  24333423.766                    24333435.355
        38.200          20.900
 113012903.014 8  88062076.40346  21505651.375                    21505661.242
        48.900          36.100
 121350021.260 7  94558554.43345  23092139.086                    23092152.746
        45.000          31.000
 106287467.512 8  82821265.30347  20225794.680                    20225802.051
        51.000          44.700
 125741326.074 7  97980208.08845  23927765.570                    23927776.699
        43.900          30.000
 116923836.319 8  91109586.57046  22249876.680                    22249886.492
        49.000          36.600
 112110136.701 8  87358668.14746  21333871.742                    21333877.996
        49.600          40.000
 117418312.706 7  91494706.66745  22343934.945                    22343945.016
        46.000          31.200
 12  6 14  0 15  0.0000000  0 10G21G27G31G09G25G18G15G12G22G14
 118514024.114 6  92348575.06944  22552464.867                    22552475.375
        41.400          27.200
 125199272.539 6  97557908.80944  23824631.828                    23824642.762
        41.900          25.200
 127770839.950 6  99561710.47043  24313977.836                    24313988.984
        40.100          21.700
 113096153.298 7  88126946.70345  21521493.703                    21521503.027
        47.800          35.500
 121257112.468 7  94486158.04545  23074459.320                    23074472.078
        43.700          30.600
 106290425.131 8  82823569.91647  20226357.453                    20226365.238
        50.700          44.400
 125807222.318 7  98031555.75945  23940305.211                    23940315.957
        42.500          30.900
 116879661.064 8  91075164.31846  22241470.883                    22241479.387
        50.200          37.400
 112044379.733 8  87307428.97946  21321358.516                    21321364.973
        50.700          40.900
 117375929.977 7  91461681.20445  22335869.727                    22335879.371
        45.800          30.200
 12  6 14  0 15 30.0000000  0 10G21G27G31G09G25G18G15G12G22G14
 118603227.076 7  92418083.79644  22569439.742                    22569449.836
        42.800          27.900
 125295766.590 6  97633098.89143  23842994.578                    23843004.539
        40.500          23.000
 127668841.262 7  99482230.95143  24294568.172                    24294579.508
        42.100          22.900
 113179722.786 8  88192065.73346  21537396.594                    21537406.242
        48.000          36.100
 121164335.520 7  94413864.38145  23056804.820                    23056817.191
        44.700          32.200
 106293840.418 8  82826231.15647  20227007.445                    20227015.336
        52.800          44.300
 125873137.257 7  98082917.95845  23952848.063                    23952860.000
        43.500          30.000
 116835956.750 8  91041109.03246  22233154.234                    22233162.879
        50.300          37.300
 111978889.580 8  87256397.72646  21308896.102                    21308902.535
        49.900          39.900
 117333636.268 7  91428725.10545  22327821.430                    22327831.152
        46.800          30.900
 12  6 14  0 16  0.0000000  0 10G21G27G31G09G25G18G15G12G22G14
 118692631.869 7  92487749.78944  22586453.297                    22586463.555
        42.200          28.300
 125392286.583 6  97708309.18843  23861361.758                    23861372.145
        40.200          22.800
 127567030.517 6  99402897.92144  24275193.984                    24275206.012
        41.900          26.000
 113263608.611 8  88257431.25346  21553359.531                    21553368.945
        48.300          36.100
 121071693.238 7  94341675.64845  23039175.031                    23039187.637
        45.000          30.900
 106297713.981 8  82829249.48447  20227744.813                    20227752.039
        51.800          45.000
 125939070.959 7  98134294.80145  23965395.422                    23965406.020
        43.000          30.600
 116792725.424 8  91007422.32146  22224927.602                    22224936.391
        48.800          38.300
 111913668.144 8  87205575.85446  21296485.055                    21296491.254
        49.900          40.300
 117291430.820 7  91395837.77445  22319789.781                    22319799.258
        45.800          31.100
 12  6 14  0 16 30.0000000  0 10G21G27G31G09G25G18G15G12G22G14
 118782237.617 6  92557572.32844  22603504.359                    22603515.102
        41.900          27.900
 125488832.470 6  97783539.68243  23879733.180                    23879743.914
        40.200          22.600
 127465411.586 6  99323714.32544  24255857.586                    24255868.527
        40.400          24.100
 113347809.647 8  88323042.40146  21569382.398                    21569392.223
        48.600          36.400
 120979190.939 7  94269596.00545  23021572.328                    23021585.156
        43.700          31.000
 106302049.215 8  82832627.56947  20228569.695                    20228577.266
        51.700          44.900
 126005025.742 7  98185688.04545  23977946.492                    23977957.078
        42.000          30.500
 116749971.855 8  90974107.86046  22216792.320                    22216801.336
        50.300          38.300
 111848719.689 8  87154966.68746  21284125.328                    21284131.828
        50.900          41.000
 117249315.517 7  91363020.69945  22311775.367                    22311785.453
        45.000          30.600
 12  6 14  0 17  0.0000000  0 10G21G27G31G09G25G18G15G12G22G14
 118872038.608 7  92627547.00644  22620593.539                    22620603.313
        42.600          26.200
 125585399.499 6  97858786.62843  23898108.664                    23898120.664
        40.000          22.500
 127363983.534 6  99244679.51043  24236556.391                    24236567.688
        40.000          22.600
 113432320.209 8  88388894.73346  21585464.305                    21585474.324
        48.500          37.900
 120886829.094 7  94197625.84245  23003996.719                    23004009.227
        44.600          32.300
 106306844.296 8  82836363.96947  20229482.500                    20229489.551
        53.000          45.100
 126070998.756 7  98237095.49444  23990500.109                    23990511.750
        43.300          29.400
 116707695.052 8  90941164.93046  22208746.883                    22208755.801
        49.700          36.500
 111784043.755 8  87104569.87846  21271817.961                    21271824.441
        50.400          40.600
 117207287.156 7  91330271.34745  22303778.148                    22303788.055
        47.400          31.100
 12  6 14  0 17 30.0000000  0 10G21G27G31G09G25G18G15G12G22G14
 118962032.306 6  92697671.89643  22637718.031                    22637728.566
        37.700          19.300
 125681986.574 5  97934049.13642  23916490.867                    23916500.805
        35.800          16.900
 127262748.879 5  99165795.41042  24217291.664                    24217303.625
        34.900          16.300
 113517138.245 7  88454986.66145  21601604.844                    21601614.418
        43.100          31.100
 120794611.527 6  94125768.05544  22986447.930                    22986461.402
        40.000          24.900
 106312100.952 8  82840460.03846  20230482.195                    20230489.773
        48.100          37.700
 126136990.923 6  98288517.86743  24003058.047                    24003069.563
        39.000          21.800
 116665898.508 7  90908596.24344  22200792.805                    22200802.242
        43.300          29.700
 111719643.551 7  87054387.92245  21259562.914                    21259568.902
        44.200          33.300
 117165345.923 6  91297589.87944  22295796.148                    22295806.359
        40.400          24.600
 12  6 14  0 18  0.0000000  0 10G21G27G31G09G25G18G15G12G22G14
 119052216.641 6  92767945.31543  22654880.344                    22654890.254
        38.700          20.600
 125778592.602 5  98009326.48142  23934873.969                    23934884.637
        35.000          16.300
 127161710.473 6  99087064.21142  24198064.172                    24198076.512
        36.900          17.400
 113602262.079 7  88521316.86345  21617803.578                    21617812.965
        43.000          30.300
 120702542.478 6  94054026.00444  22968928.297                    22968940.945
        38.600          26.100
 106317821.530 7  82844917.63146  20231571.297                    20231578.383
        47.300          37.500
 126203003.570 6  98339956.23143  24015620.219                    24015631.613
        38.900          20.900
 116624585.536 7  90876404.34744  22192932.102                    22192940.742
        42.900          29.800
 111655522.322 7  87004423.34045  21247361.203                    21247367.203
        44.900          33.600
 117123492.526 6  91264976.87544  22287832.852                    22287841.945
        39.000          24.300
 12  6 14  0 18 30.0000000  0 10G21G27G31G09G25G18G15G12G22G14
 119142587.466 6  92838364.04143  22672077.914                    22672086.785
        38.700          19.300
 125875214.930 5  98084616.53442  23953260.695                    23953271.059
        35.800          16.900
 127060869.000 6  99008486.47542  24178874.898                    24178887.219
        36.200          16.900
 113687688.040 7  88587882.47344  21634059.422                    21634069.410
        42.400          29.800
 120610624.271 6  93982401.51543  22951435.531                    22951449.230
        39.400          21.700
 106324006.105 7  82849736.77446  20232747.844                    20232755.594
        47.000          37.200
 126269036.058 6  98391410.01943  24028186.180                    24028197.113
        38.400          20.900
 116583757.481 7  90844590.30244  22185162.102                    22185171.348
        43.300          29.800
 111591681.337 7  86954677.14245  21235213.109                    21235218.605
        45.100          32.800
 117081725.494 6  91232431.15644  22279884.164                    22279893.848
        41.000          24.100
 12  6 14  0 19  0.0000000  0 10G21G27G31G09G25G18G15G12G22G14
 119233143.557 6  92908927.15043  22689310.438                    22689319.125
        38.900          19.300
 125971852.817 6  98159918.68642  23971650.008                    23971660.770
        36.100          15.600
 126960228.120 5  98930065.00642  24159723.711                    24159735.621
        34.900          16.900
 113773414.916 7  88654682.55844  21650373.156                    21650382.387
        42.600          29.900
 120518861.682 6  93910898.28143  22933974.898                    22933987.633
        40.200          22.600
 106330656.912 7  82854919.20246  20234013.766                    20234021.293
        46.900          37.300
 126335090.017 6  98442880.53043  24040755.938                    24040766.352
        38.400          19.900
 116543418.599 7  90813157.43944  22177486.039                    22177494.680
        43.500          28.100
 111528124.255 7  86905152.14445  21223118.383                    21223124.023
        45.200          33.300
 117040045.977 6  91199953.65343  22271952.969                    22271962.473
        40.000          22.500
 12  6 14  0 19 30.0000000  0 10G21G27G31G09G25G18G15G12G22G14
 119323878.830 6  92979629.89943  22706575.805                    22706585.465
        38.800          19.000
 126068501.577 6  98235229.37542  23990040.672                    23990052.195
        37.300          15.600
 126859786.921 6  98851799.19342  24140610.227                    24140621.863
        36.700          16.900
 113859436.969 7  88721712.67144  21666742.570                    21666751.930
        42.300          28.900
 120427255.165 6  93839516.63643  22916541.742                    22916555.309
        38.300          22.500
 106337771.982 7  82860463.39446  20235367.703                    20235375.289
        47.200          37.000
 126401163.144 6  98494366.01343  24053328.453                    24053339.996
        37.200          19.300
 116503568.177 7  90782105.21044  22169902.797                    22169911.516
        43.400          28.900
 111464850.848 7  86855848.23145  21211077.398                    21211084.129
        43.800          32.700
 116998451.043 6  91167542.03444  22264037.328                    22264047.008
        39.400          24.100
 12  6 14  0 20  0.0000000  0 10G21G27G31G09G25G18G15G12G22G14
 119414794.751 6  93050473.36743  22723878.086                    22723886.594
        38.300          18.600
 126165163.738 6  98310550.44642  24008435.367                    24008446.602
        36.100          16.300
 126759551.545 6  98773693.74143  24121535.289                    24121548.063
        39.200          19.000
 113945755.757 7  88788974.00444  21683167.930                    21683177.848
        43.100          29.600
 120335812.390 6  93768262.62743  22899140.188                    22899153.828
        38.800          22.500
 106345357.374 7  82866374.06746  20236810.930                    20236818.461
        46.900          36.900
 126467260.060 6  98545870.02943  24065906.391                    24065918.219
        37.700          19.300
 116464212.787 7  90751438.70345  22162413.563                    22162422.203
        43.200          30.200
 111401867.915 7  86806770.64645  21199092.484                    21199098.719
        44.300          33.100
 116956944.733 6  91135199.49943  22256139.125                    22256148.598
        37.700          22.500
 12  6 14  0 20 30.0000000  0 10G21G27G31G09G25G18G15G12G22G14
 119505884.596 6  93121452.39143  22741210.883                    22741220.602
        38.700          18.300
 126261833.680 6  98385877.57542  24026830.828                    24026841.586
        36.400          16.300
 126659520.138 6  98695747.33442  24102501.055                    24102512.867
        36.500          16.300
 114032365.039 7  88856461.70144  21699649.281                    21699659.402
        43.400          29.300
 120244533.065 6  93697135.92043  22881771.320                    22881783.918
        38.400          22.500
 106353410.325 7  82872649.06146  20238343.828                    20238351.102
        46.800          36.000
 126533377.559 6  98597390.06742  24078488.375                    24078499.828
        38.100          17.800
 116425351.533 7  90721157.25144  22155018.492                    22155027.543
        42.800          27.900
 111339174.010 7  86757918.25545  21187162.531                    21187168.660
        44.300          33.300
 116915523.096 6  91102922.93343  22248257.070                    22248266.359
        39.700          22.800
 12  6 14  0 21  0.0000000  0 10G21G27G31G09G25G18G15G12G22G14
 119597146.072 6  93192565.13443  22758577.930                    22758587.215
        37.800          19.300
 126358510.070 5  98461209.75442  24045227.391                    24045238.992
        34.600          15.600
 126559695.010 5  98617961.49542  24083504.859                    24083516.262
        35.300          17.400
 114119262.757 7  88924174.13145  21716185.938                    21716195.750
        42.200          30.300
 120153420.935 6  93626139.53843  22864433.172                    22864445.699
        39.000          22.300
 106361932.341 7  82879289.56546  20239965.094                    20239972.797
        46.600          36.600
 126599516.264 6  98648926.63243  24091074.375                    24091085.578
        38.100          19.300
 116386987.492 7  90691263.18544  22147717.930                    22147727.000
        44.100          29.100
 111276771.921 7  86709293.27245  21175287.352                    21175293.863
        43.700          33.100
 116874186.311 6  91070712.48343  22240390.203                    22240400.449
        40.000          22.900
 12  6 14  0 21 30.0000000  0 10G21G27G31G09G25G18G15G12G22G14
 119688575.548 6  93263808.78943  22775976.773                    22775985.168
        39.700          19.600
 126455190.563 5  98536545.12342  24063625.664                    24063636.781
        35.300          16.300
 126460077.385 6  98540337.53143  24064548.109                    24064559.195
        37.100          19.000
 114206445.213 7  88992108.45245  21732776.352                    21732786.156
        44.000          30.200
 120062478.669 6  93555275.50843  22847127.227                    22847139.879
        39.600          23.500
 106370923.538 7  82886295.67646  20241676.172                    20241683.602
        47.900          37.500
 126665675.712 6  98700479.36543  24103664.188                    24103675.379
        38.900          20.600
 116349121.971 7  90661757.59845  22140512.172                    22140521.289
        44.500          30.600
 111214663.551 7  86660897.15645  21163468.766                    21163475.219
        44.500          34.400
 116832933.244 6  91038567.27743  22232541.023                    22232550.309
        40.200          23.600
 12  6 14  0 22  0.0000000  0 10G21G27G31G09G25G18G15G12G22G14
 119780170.400 6  93335181.31143  22793405.742                    22793414.973
        39.000          18.600
 126551873.862 5  98611882.71542  24082024.211                    24082035.180
        34.500          15.600
 126360670.107 6  98462877.34643  24045630.922                    24045642.734
        37.600          18.300
 114293910.327 7  89060263.02344  21749420.539                    21749429.852
        42.000          29.400
 119971710.178 6  93484546.88844  22829854.648                    22829867.492
        39.200          25.300
 106380385.747 7  82893668.80246  20243476.773                    20243484.172
        47.800          36.900
 126731857.126 6  98752049.20143  24116257.398                    24116269.250
        36.500          19.600
 116311757.792 7  90632642.68845  22133402.078                    22133410.805
        44.700          31.000
 111152852.007 7  86612732.32045  21151705.859                    21151712.203
        45.700          34.000
 116791764.378 6  91006487.63644  22224705.961                    22224715.250
        40.300          24.800
 12  6 14  0 22 30.0000000  0 10G21G27G31G09G25G18G15G12G22G14
 119871927.769 6  93406680.43643  22810866.789                    22810875.918
        39.500          20.100
 126648558.394 5  98687221.19342  24100422.938                    24100433.695
        33.700          16.300
 126261474.602 6  98385582.22243  24026754.859                    24026767.176
        36.100          18.600
 114381655.550 6  89128635.85945  21766117.813                    21766127.297
        41.500          30.100
 119881118.943 6  93413956.37344  22812616.313                    22812628.270
        40.800          24.800
 106390320.321 7  82901410.01846  20245367.211                    20245374.816
        46.900          37.800
 126798061.008 6  98803636.58543  24128855.414                    24128868.168
        36.200          18.600
 116274897.703 7  90603920.53945  22126387.742                    22126397.289
        45.000          31.400
 111091339.506 7  86564800.52545  21140000.734                    21140006.922
        45.400          33.800
 116750679.632 6  90974473.58943  22216888.523                    22216897.684
        40.500          23.900
 12  6 14  0 23  0.0000000  0 10G21G27G31G09G25G18G15G12G22G14
 119963843.744 6  93478303.21344  22828357.641                    22828368.082
        41.900          25.100
 126745241.217 6  98762558.44643  24118819.555                    24118831.020
        39.200          20.600
 126162491.900 7  98308452.96244  24007919.109                    24007930.895
        43.800          27.300
 114469677.362 8  89197224.22546  21782867.727                    21782877.664
        48.600          37.100
 119790707.375 7  93343505.86145  22795410.398                    22795423.484
        44.500          32.900
 106400727.190 8  82909519.23547  20247347.828                    20247355.051
        53.100          45.700
 126864286.683 6  98855240.91444  24141458.797                    24141469.883
        41.800          24.000
 116238543.031 8  90575592.22346  22119469.703                    22119479.125
        50.100          38.100
 111030127.727 8  86517103.05346  21128352.211                    21128358.223
        50.400          41.300
 116709677.884 7  90942524.20345  22209085.891                    22209095.582
        47.200          33.100
 12  6 14  0 23 30.0000000  0 10G21G27G31G09G25G18G15G12G22G14
 120055915.621 6  93550047.45244  22845879.414                    22845889.078
        41.800          26.600
 126841921.580 6  98837893.69243  24137217.984                    24137228.805
        38.000          20.100
 126063725.236 7  98231491.97344  23989125.055                    23989136.625
        44.100          27.800
 114557973.979 7  89266026.70946  21799669.969                    21799679.957
        47.200          37.000
 119700479.665 7  93273198.61145  22778241.359                    22778253.789
        44.300          32.300
 106411607.912 8  82917997.68347  20249417.898                    20249426.090
        53.400          44.900
 126930535.212 7  98906863.05444  24154065.641                    24154076.203
        43.300          27.700
 116202696.678 8  90547660.03546  22112648.078                    22112657.137
        50.500          38.400
 110969219.951 8  86469642.46046  21116762.188                    21116768.590
        50.000          40.800
 116668759.725 7  90910639.93645  22201299.016                    22201309.336
        46.500          32.900
 12  6 14  0 24  0.0000000  0 10G21G27G31G09G25G18G15G12G22G14
 120148140.293 6  93621910.76244  22863428.477                    22863438.699
        41.000          24.600
 126938596.073 6  98913224.39143  24155614.477                    24155625.473
        38.300          19.300
 125965174.367 7  98154699.19344  23970370.563                    23970382.875
        44.300          26.700
 114646541.217 7  89335040.07945  21816524.109                    21816533.383
        45.900          35.700
 119610437.657 7  93203036.06845  22761106.578                    22761119.664
        44.500          32.500
 106422961.929 8  82926844.93247  20251578.836                    20251586.473
        52.800          44.600
 126996805.500 7  98958502.15044  24166676.563                    24166688.289
        43.800          29.400
 116167359.567 8  90520124.63946  22105923.977                    22105933.254
        50.500          38.600
 110908617.079 8  86422419.46546  21105229.672                    21105236.379
        50.700          41.300
 116627923.286 7  90878819.33545  22193528.305                    22193537.996
        46.100          32.100
 12  6 14  0 24 30.0000000  0 10G21G27G31G09G25G18G15G12G22G14
 120240514.069 6  93693890.23444  22881006.570                    22881016.699
        39.700          24.200
 127035262.833 6  98988549.03443  24174010.180                    24174020.852
        39.600          19.300
 125866841.137 7  98078075.97644  23951658.648                    23951670.723
        43.000          25.300
 114735376.275 7  89404262.14045  21833428.539                    21833438.098
        46.500          35.200
 119520584.392 7  93133020.60545  22744008.055                    22744020.586
        45.300          32.200
 106434790.238 8  82936061.76747  20253829.742                    20253837.195
        53.200          45.000
 127063097.877 7  99010158.47644  24179291.555                    24179303.781
        44.100          29.300
 116132533.742 8  90492987.63446  22099296.602                    22099305.500
        49.000          38.100
 110848321.101 8  86375435.60246  21093755.766                    21093762.254
        51.100          41.500
 116587168.062 7  90847062.02645  22185772.508                    22185782.121
        46.600          31.900
 12  6 14  0 25  0.0000000  0 10G21G27G31G09G25G18G15G12G22G14
 120333035.947 6  93765985.13444  22898613.180                    22898623.020
        41.300          25.600
 127131922.321 6  99063868.02043  24192404.109                    24192414.750
        39.000          19.000
 125768729.706 7  98001625.58444  23932988.844                    23933000.406
        42.700          27.100
 114824478.703 7  89473692.53845  21850384.719                    21850393.789
        46.300          35.600
 119430925.511 7  93063156.61845  22726946.492                    22726958.617
        43.400          32.800
 106447095.947 8  82945650.61347  20256171.438                    20256179.348
        53.700          45.100
 127129415.061 7  99061834.13044  24191911.000                    24191923.219
        42.700          27.600
 116098223.567 8  90466252.46446  22092767.594                    22092776.961
        48.100          37.300
 110788336.628 8  86328694.46146  21082340.945                    21082347.520
        50.500          40.800
 116546496.143 7  90815369.63745  22178032.883                    22178042.594
        45.400          32.400
 12  6 14  0 25 30.0000000  0 10G21G27G31G09G25G18G15G12G22G14
 120425700.865 6  93838191.48444  22916246.938                    22916256.844
        39.000          25.100
 127228570.746 6  99139178.38343  24210795.867                    24210807.023
